{
   "type": "FeatureCollection",
   "features": [
  {
    "type": "Feature",
    "geometry": {
       "type": "Point",
       "coordinates":  [ -122.2584763,37.5173614 ]
    },
    "properties": {
    "FacilityName":"Shoreway Environmental Center",
    "County":" San Mateo ",
    "Country":" United States ",
    "Address":"333 Shoreway Road San Carlos, CA 94070",
    "Phone":" (650) 802-8355"
    }
  },
  {
    "type": "Feature",
    "geometry": {
       "type": "Point",
       "coordinates":  [ -122.4068735,37.4805947 ]
    },
    "properties": {
    "FacilityName":"Ox Mountain Sanitary Landfill (Republic Services)",
    "County":" San Mateo ",
    "Country":" United States ",
    "Address":"12310 San Mateo Rd. Half Moon Bay, CA 94019",
    "Phone":" 650-713-3620"
    }
  },
  {
    "type": "Feature",
    "geometry": {
       "type": "Point",
       "coordinates":  [ -122.0713638,37.4081544 ]
    },
    "properties": {
    "FacilityName":"Recology Mountain View",
    "County":" Santa Clara ",
    "Country":" United States ",
    "Address":"935 Terra Bella Ave Mountain View, CA 94043",
    "Phone":" 650-967-3034"
    }
  },
  {
    "type": "Feature",
    "geometry": {
       "type": "Point",
       "coordinates":  [ -122.0124392,37.4176479 ]
    },
    "properties": {
    "FacilityName":"Bay Counties SMART Station - SV, MV & PA Residents",
    "County":" Santa Clara ",
    "Country":" United States ",
    "Address":"301 Carl Rd. Sunnyvale, CA 94089",
    "Phone":" 408-752-8530"
    }
  },
  {
    "type": "Feature",
    "geometry": {
       "type": "Point",
       "coordinates":  [ -122.1255906,37.6335739 ]
    },
    "properties": {
    "FacilityName":"Omega JV, Inc.",
    "County":" Alameda ",
    "Country":" United States ",
    "Address":"3449 Enterprise Ave. Hayward, CA 94545",
    "Phone":" 510-827-5756"
    }
  },
  {
    "type": "Feature",
    "geometry": {
       "type": "Point",
       "coordinates":  [ -121.9898875,37.5101665 ]
    },
    "properties": {
    "FacilityName":"Fremont Transfer and Recycling",
    "County":" Alameda ",
    "Country":" United States ",
    "Address":"41149 Boyce Rd. Fremont, CA 94538",
    "Phone":" 510-252-0500"
    }
  },
  {
    "type": "Feature",
    "geometry": {
       "type": "Point",
       "coordinates":  [ -122.3834956,37.6485797 ]
    },
    "properties": {
    "FacilityName":"South San Francisco Scavenger - Blue Line Transfer Station",
    "County":" San Mateo ",
    "Country":" United States ",
    "Address":"500 East Jamie Court South San Francisco, CA 94080",
    "Phone":" 650-589-4020"
    }
  },
  {
    "type": "Feature",
    "geometry": {
       "type": "Point",
       "coordinates":  [ -121.9287849,37.4539839 ]
    },
    "properties": {
    "FacilityName":"Newby Island Landfill",
    "County":" Santa Clara ",
    "Country":" United States ",
    "Address":"1601 Dixon Landing Road Milpitas, CA 95305",
    "Phone":" 408-262-1401"
    }
  },
  {
    "type": "Feature",
    "geometry": {
       "type": "Point",
       "coordinates":  [ -122.3992415,37.2413581 ]
    },
    "properties": {
    "FacilityName":"Pescadero Transfer Station",
    "County":" San Mateo ",
    "Country":" United States ",
    "Address":"Bean Hollow Road Pescadero, CA 94060",
    "Phone":" 650-879-0729"
    }
  },
  {
    "type": "Feature",
    "geometry": {
       "type": "Point",
       "coordinates":  [ -122.4929204,37.6435388 ]
    },
    "properties": {
    "FacilityName":"Recology of the Coast",
    "County":" San Mateo ",
    "Country":" United States ",
    "Address":"1046 Palmetto Ave. Pacifica, CA 94044",
    "Phone":" 650-355-9000"
    }
  },
  {
    "type": "Feature",
    "geometry": {
       "type": "Point",
       "coordinates":  [ -122.1848929,37.7416281 ]
    },
    "properties": {
    "FacilityName":"Habitat for Humanity ReStore",
    "County":" Alameda ",
    "Country":" United States ",
    "Address":"9235 San Leandro St. Oakland , CA 94603",
    "Phone":" 510-803-3350"
    }
  },
  {
    "type": "Feature",
    "geometry": {
       "type": "Point",
       "coordinates":  [ -121.8959268,37.3661584 ]
    },
    "properties": {
    "FacilityName":"Greenwaste Recycling",
    "County":" Santa Clara ",
    "Country":" United States ",
    "Address":"625 Charles St. San Jose, CA 95112",
    "Phone":" 408-535-3500"
    }
  },
  {
    "type": "Feature",
    "geometry": {
       "type": "Point",
       "coordinates":  [ -121.8980609,37.3598071 ]
    },
    "properties": {
    "FacilityName":"Goodwill of Silicon Valley",
    "County":" Santa Clara ",
    "Country":" United States ",
    "Address":"1080 North 7th Street San Jose, CA 95112",
    "Phone":" 408-869-9158"
    }
  },
  {
    "type": "Feature",
    "geometry": {
       "type": "Point",
       "coordinates":  [ -121.8794975,37.3664863 ]
    },
    "properties": {
    "FacilityName":"Bay Area Scavenger & Recycling",
    "County":" Santa Clara ",
    "Country":" United States ",
    "Address":"11740 Berryessa Rd. San Jose, CA 94587",
    "Phone":" 650-515-0393"
    }
  },
  {
    "type": "Feature",
    "geometry": {
       "type": "Point",
       "coordinates":  [ -122.2291274,37.778825 ]
    },
    "properties": {
    "FacilityName":"Goodwill of Greater East Bay",
    "County":" Alameda ",
    "Country":" United States  ",
    "Address":"1301 30th Ave. Oakland, CA 94501",
    "Phone":""
    }
  },
  {
    "type": "Feature",
    "geometry": {
       "type": "Point",
       "coordinates":  [ -122.4208339,37.7486433 ]
    },
    "properties": {
    "FacilityName":"Salvation Army - SFARC",
    "County":" San Francisco ",
    "Country":" United States ",
    "Address":"1500 Valencia Street San Francisco , CA 94110",
    "Phone":" 415-643-8000"
    }
  },
  {
    "type": "Feature",
    "geometry": {
       "type": "Point",
       "coordinates":  [ -121.8652449,37.3112377 ]
    },
    "properties": {
    "FacilityName":"Leo Recycle",
    "County":" Santa Clara ",
    "Country":" United States ",
    "Address":"215 Leo Ave. San Jose, CA 95112",
    "Phone":" 408-780-5557"
    }
  },
  {
    "type": "Feature",
    "geometry": {
       "type": "Point",
       "coordinates":  [ -121.8537259,37.6753893 ]
    },
    "properties": {
    "FacilityName":"Pleasanton Transfer Station",
    "County":" Alameda ",
    "Country":" United States ",
    "Address":"3110 Busch Rd Pleasanton, CA 94566",
    "Phone":" 925-846-2042"
    }
  },
  {
    "type": "Feature",
    "geometry": {
       "type": "Point",
       "coordinates":  [ -122.0783866,37.0954005 ]
    },
    "properties": {
    "FacilityName":"Ben Lomond Landfill",
    "County":" Santa Cruz ",
    "Country":" United States ",
    "Address":"9835 Newell Creek Rd. Watsonville, CA 95076",
    "Phone":" 831-454-2430"
    }
  }
]
}